{
    "branch": [
        {
            "id": "01",
            "name": "intel",
            "address":"intel address",
            "latitude": "12.958055",
            "longitude": "77.716329"
        },
        {
            "id": "02",
            "name": "SHIVAJINAGAR",
            "address":"SHIVAJINAGAR Address",
            "latitude": "12.975537",
            "longitude": "77.606894"
        },
        {
            "id": "03",
            "name": "Richmond Town",
            "address":"Richmond Town address",
            "latitude": "12.963555",
            "longitude": "77.601904"
        },
        {
            "id": "04",
            "name": "Chickpete",
            "address":"Chickpete Address",
            "latitude": "12.974763",
            "longitude": "77.571198"
        },
        {
            "id": "05",
            "name": "Binnipete",
            "address":"Binnipete Address",
            "latitude": "12.973007",
            "longitude": "77.559933"
        }
    ]
}